[
    {
        "name": "光谷软件园",
        "address": "湖北省武汉市洪山区关山一路1号",
        "latitude": 30.476756,
        "longitude": 114.406149,
        "geohash": "30.476756,114.406149"
    },
    {
        "name": "软件园中路",
        "address": "湖北省武汉市洪山区 ",
        "latitude": 30.475595,
        "longitude": 114.402657,
        "geohash": "30.475595,114.402657"
    },
    {
        "name": "软件园路[公交站]",
        "address": "光谷有轨电车L1路,787路,东湖高新区区间专线",
        "latitude": 30.473689,
        "longitude": 114.402888,
        "geohash": "30.473689,114.402888"
    },
    {
        "name": "软件园广场",
        "address": "湖北省武汉市洪山区光谷软件园b区f1栋",
        "latitude": 30.47907,
        "longitude": 114.40913,
        "geohash": "30.47907,114.40913"
    },
    {
        "name": "软件园中路[公交站]",
        "address": "362路,327路,759路,586路",
        "latitude": 30.47657,
        "longitude": 114.402915,
        "geohash": "30.47657,114.402915"
    },
    {
        "name": "光谷软件园F1",
        "address": "湖北省武汉市洪山区关山一路1号光谷软件园",
        "latitude": 30.47841,
        "longitude": 114.40684,
        "geohash": "30.47841,114.40684"
    },
    {
        "name": "软件园路",
        "address": "湖北省武汉市洪山区 ",
        "latitude": 30.4737,
        "longitude": 114.4058,
        "geohash": "30.4737,114.4058"
    },
    {
        "name": "光谷软件园C3",
        "address": "湖北省武汉市洪山区关山一路1号光谷软件园",
        "latitude": 30.4772,
        "longitude": 114.40332,
        "geohash": "30.4772,114.40332"
    },
    {
        "name": "光谷软件园D8",
        "address": "湖北省武汉市洪山区关山一路1号光谷软件园",
        "latitude": 30.47805,
        "longitude": 114.40498,
        "geohash": "30.47805,114.40498"
    },
    {
        "name": "光谷软件园F4",
        "address": "湖北省武汉市洪山区关山大道",
        "latitude": 30.4783,
        "longitude": 114.40889,
        "geohash": "30.4783,114.40889"
    }
]